lng,lat,value,name
-101.057678,29.449941,30,AMISTAD_ALL
-94.932678,29.378137,30,AMOCO_PUN1
-100.15802,29.215214,30,ANACACHO_ANA
-96.372211,30.647455,30,ATK_ATKINSG7
-97.784797,30.293931,30,AUSTPL_ALL
-95.071478,29.702014,30,AZ_ALL
-97.310196,27.607441,30,B_DAVIS_3
-94.982578,29.486899,30,BAC_RN_ALL
-97.528657,27.103234,30,BAFFIN_ALL
-97.549784,30.146278,30,BASTEN_CCU
-97.636329,26.500956,30,BBREEZE_1_2
-96.055349,31.820607,30,BBSES_UNIT1
-98.570491,33.509188,30,BCATWD_WD_1
-99.367467,34.293473,30,BLSMT1_5_A_6
-102.291039,31.033424,30,BOOTLEG_UN1
-98.931877,27.358092,30,BORDAS_345
-97.357824,31.859464,30,BOSQ_BSQSU_5
-98.381978,29.256832,30,BR_VHB6CT5_6
-101.146911,32.949884,30,BRAZ_WND_ALL
-101.374278,34.371453,30,BRISCOE_WIND
-98.363595,33.073455,30,BRTSW_BCW1
-95.395136,29.001102,30,BSF_PUN1
-94.903122,29.772016,30,BTE_PUN1
-98.417931,30.751282,30,BUCHAN_ALL
-98.353682,32.376956,30,BUCKTHRN_RN
-100.115386,32.298543,30,BUFF_GAP_ALL
-101.605095,32.906769,30,BULLCRK_1_2
-95.6233,29.472546,30,BVE_UNIT1
-95.047586,29.623248,30,BYU_PUN1
-95.177016,29.731568,30,CAL_PUN1
-98.319737,29.308852,30,CALAVER_OWS1
-96.552755,28.683052,40,CALHOUN_ALL
-99.995602,32.296385,30,CALLAHA_WND1
-97.465774,26.194815,30,CAMWIND_RN
-100.928076,31.926188,30,CAPRIDG4_CR4
-101.40123,32.273974,40,CARBN_BSP_1
-102.30884,31.259419,40,CASL_GAP_UN1
-96.069042,29.289073,30,CBEC_ALL
-96.068816,29.287854,30,CBECII_1
-94.924253,29.750469,30,CBY4_ALL
-97.429057,27.81204,30,CCEC_CC1
-98.843784,27.608743,30,CEDROHI_CHW1
-100.060601,31.097592,30,CFLATS_UNIT
-95.104872,29.876916,30,CHAMON_UN1
-95.233636,29.710523,30,CHE_PUN1
-97.213174,28.71506,20,COL_COLETOG1
-101.184903,33.979043,30,COTPLNS_RN
-97.424589,27.950722,30,COTTON_PAP2
-97.78547,32.298759,30,CPSES_UNIT1
-100.83267,32.753102,30,CSC_CSECG1_2
-96.460658,30.721863,30,DANSBY_ALL
-97.699502,32.403234,30,DC2SES_ALL
-97.612682,30.304289,30,DECKER_DPG1
-96.56924,33.817847,30,DENISON_G1_2
-100.975986,32.864857,30,DERMOTT_ALL
-95.085844,29.723605,30,DIB_PUN1
-95.388828,28.982454,30,DOWGEN_PUN1
-98.175072,26.342236,30,DUKE_GST1CCU
-96.954831,28.674719,40,DUP_PUN1
-100.393714,29.324061,30,ECLIPSE_UN1
-101.398767,32.140883,20,ELB_ELBCREEK
-99.117156,34.101749,30,ELECTRAW_1_2
-100.735316,32.73004,30,ENAS_ENA1
-96.674723,32.319935,30,ETCCS_CCU
-98.909318,27.191033,30,EXGNSND_RN
-99.005594,27.506281,30,EXGNWTL_1
-95.011588,29.756264,30,EXN_PUN1
-99.161754,26.558077,30,FAL_FALCONG1
-95.446822,29.639945,30,FEGC_RN
-98.374899,30.5539,30,FERGCC_GT1_1
-100.711921,29.76559,30,FERMI_ALL
-101.421301,32.27251,40,FLCNS_UNIT1
-98.46429,32.33178,30,FLTCK_SSI
-101.157666,32.889822,30,FLUVANNA_1_2
-96.539894,28.649435,40,FO_FORMOSA11
-96.540798,28.695107,40,FORMOSA_CC1
-96.750626,29.916026,30,FPPYD_FPP_G1
-96.111612,31.890452,30,FREC_1_CCU
-96.490885,32.756605,30,FRNYPP_1_CCU
-95.918071,30.592818,30,FTR_FTR_G1_4
-98.623858,31.688285,30,FTWIND_UNIT1
-95.219433,29.82163,30,GBY_GBY_5
-96.081494,30.620015,30,GIB_GIB_CRG1
-97.270469,30.147132,30,GID_GIDEONG1
-100.861431,31.909922,30,GOA_GOATWIND
-99.368737,33.673808,30,GPASTURE_ALL
-101.36045,35.25418,30,GRANDVW1_A_B
-98.61206,33.134983,30,GRSES_UNIT1
-98.148424,29.620519,30,GUADG_CCU1
-101.410181,32.196647,40,GUNMTN_NODE
-98.56649,31.43098,30,GWEC_G1
-97.989828,29.781215,30,HAYSEN1_2
-99.69967,29.226574,30,HELIOS_RN
-98.88706,29.985029,30,HHGT_KENDAL
-100.040198,32.226344,30,HHOLLW2_WND1
-101.350471,31.123879,30,HICK_G1_G2
-97.218583,32.727726,30,HLSES_UNIT3
-99.552687,33.289897,30,HORSECRK_RN
-103.36537,30.94724,60,HOVEY_GEN
-102.30457,34.77335,30,HRFDWIND_ALL
-99.278334,32.824168,30,HWF_HWFG1
-102.092793,30.915068,30,IN_INDNENR
-100.596358,32.497305,30,IND_INADALE1
-102.040987,30.925602,30,INDN_INDNNWP
-97.241628,27.886542,30,INGLCO_PUN1
-98.385177,30.731403,30,INKS_INKS_G1
-97.956,33.102714,30,JACKCNTY_CT1
-98.217426,33.113825,30,KEECHI_U1
-102.365451,30.822282,30,KEO_KEO_SM1
-102.237844,31.237908,30,KING_KINGNE
-101.956368,32.752391,40,LAMESASLR_G
-99.508432,27.566927,30,LARDVFTN_G4
-103.523823,30.367505,50,LASSO_GEN
-96.252773,31.423076,30,LEG_LEG_G1
-98.575478,29.351602,30,LEONLCPCT1_2
-94.743933,31.366025,30,LFBIO_UNIT1
-100.610184,31.095183,30,LGD_LANGFORD
-98.686627,31.847096,30,LGW_UNIT_ALL
-95.119736,29.831805,30,LHM_PUN1
-101.307401,34.345076,30,LHORN_N_U1_2
-96.546313,32.836693,30,LHSES_UNIT1
-99.542699,32.530972,30,LNCRK_ALL
-100.70936,32.506124,30,LONEWOLF_ALL
-95.589515,33.631386,30,LPCCS_CT11
-97.61333,26.27744,30,LV1A_LV1B
-98.612325,26.472989,30,LV3_UNIT1
-98.517847,26.499807,30,LV4_UNIT_1
-97.907464,30.39228,30,MAR_MARSFOG1
-98.256406,30.556606,30,MARBFA
-102.670416,34.677698,30,MARIAH_ALL
-101.280114,32.024824,40,MCDLD_FCSBW1
-96.936722,32.725505,30,MCSES_UNIT6
-97.054138,32.430879,30,MDANP_CT1_2
-101.683502,32.669103,30,MESQCRK_ALL
-100.915765,32.33599,30,MGSES_CT123
-100.633457,35.654473,30,MIAM1_G1_G2
-98.310089,32.658481,30,MIL_MILG1_2
-95.034015,29.667572,30,MIRAGE_G1
-98.396504,26.473188,30,MIRASOLE_GEN
-94.568499,32.259658,30,MLSES_UNIT1
-95.038249,33.090748,30,MNSES_UNIT1
-100.531169,32.994719,30,MOZART_WIND1
-100.972712,33.751761,30,MWEC_G1
-94.900664,31.832427,30,NACPW_UNIT1
-101.530192,31.766443,30,NBOHR_RN
-96.771099,28.511309,40,NCARBID_PUN1
-98.190107,26.340669,30,NED_NEDIN_G1
-97.420862,27.81989,30,NUE_NUECESG7
-102.796692,32.044332,60,NWF_NWF1
-102.326074,31.839086000000002,10,OECCS_1
-96.487141,31.182416,30,OGSES_1
-99.175851,34.082592,30,OKLA_OKLA_G1
-96.452393,33.067991,30,OLIN_OLING_1
-101.37874,32.106742,40,OWF_OWF
-97.590988,27.810305,30,OXY_PUN1
-96.615075,33.580987,30,PANDA_S_CT1
-97.31551,31.05634,30,PANDA_T1_CT1
-102.963513,31.585285,60,PB2SES_CT1
-101.469954,32.137619,20,PC_NORTH_1
-99.091855,28.92777,30,PEAR_PEARS_1
-97.599773,27.000141,30,PENA_ALL
-101.15380999999999,35.40226,30,PH1_UNIT1_2
-95.63046,29.483665,30,PNPI_GT2_RN
-95.25575,29.697751,30,PR_PR_G2
-95.111488,29.816829,30,PSA_PUN1
-100.728414,32.53232,30,PYR_PYRON1
-102.315635,31.84202,20,QALSW_ALL
-97.135099,28.894945,30,RAYBURN_G1_2
-101.22708,32.911705,30,RDCAN_RDCNY1
-97.69124,26.477743,30,REDFISH_ALL
-98.177255,26.450616,30,REDGATE_ALL
-102.831362,30.894621,50,REROCK_ALL
-97.685136,30.58568,30,RHESS_1
-102.731278,30.988194,50,RIGGIN_UNIT1
-97.973631,29.593262,30,RIONOG_CT1
-97.210544,33.216328,30,RN_DEC_GSU0
-102.680928,32.04168,60,RN_ECEC_HOLT
-98.444769,29.271846,30,RN_OCI_ALAMO
-99.564551,31.228544,30,RN_RTS1
-97.370969,26.117081,30,RN_SR_WIND1
-101.479464,32.169353,40,RN_TOSBATT
-101.527459,35.214192,30,ROUTE66_RN
-101.406179,31.689029,30,RSK_RN
-99.666696,33.319707,30,SALVTION_GEN
-98.476409,28.70439,30,SAN_SANMIGG1
-97.613073,30.209943,30,SANDHSYD1_2
-97.535547,27.601384,30,SANTACRU_ALL
-94.989969,31.939768,30,SC2SES_UNIT1
-96.956716,31.475354,30,SCES_UNIT1
-95.743663,29.078007,30,SCLP_PUN1
-97.068063,30.565063,30,SDSES_PUN1
-98.37243,33.20315,30,SENATEWD_1
-101.360276,32.240606,40,SGM_SIGNALMT
-98.360133,33.536155,30,SHANNONW_RN
-97.521524,25.913547,30,SIL_SILAS_10
-102.291255,30.885117,30,SIRIUS_UNIT1
-95.039467,29.701202,30,SJS_SJS_G1
-96.571871,29.535312,30,SKY1
-95.130901,29.715364,30,SL_PUN1
-100.888395,34.987137,30,SLTFRK_UN1_2
-99.673936,33.061829,30,SOLARA_UNIT1
-101.37118100000001,34.147577,30,SPLAIN1_RN
-101.370029,34.083655,30,SPLAIN2_RN
-97.106452,33.197636,30,SPNC_SPNCE_4
-102.298526,31.23131,40,SPTX12B_RN
-95.059882,29.726801,30,SRB_SRB_G1
-101.592308,32.946879,30,SRWE1_UNIT1
-102.1834,35.22615,30,SSPURT_WIND1
-96.126661,33.170393,30,STEAM_ENG123
-96.0492,28.795135,30,STP_STP_G1
-100.211385,32.415988,30,STWF_T1
-102.12019600000001,31.084274,30,SW_M_SW_MESA
-101.838132,32.239915,40,SWEC_G1
-100.35102,32.340995,30,SWEETWN2_2_4
-100.322188,32.456486,30,SWEETWND_1
-100.499177,32.303601,30,SWTWN4_WND45
-95.39812,29.703834,30,TC_PUN1
-97.407381,32.399635,40,TEN_CT1_STG
-94.620088,32.018188,30,TGCCS_ALL
-95.899124,29.263829,30,TGF_TGFGT
-97.542153,27.125187,30,TGW_T1_T2
-95.533039,29.942229,30,THW_1_CCU
-100.659161,32.440943,30,TKWSW_CHAMP
-100.67276,32.494611,30,TKWSW_ROSCOE
-96.695439,31.092056,30,TNP_TNP_O_1
-95.566827,33.724396,30,TNSKA_CCU
-100.220527,32.439597,30,TRENT_TRENT
-98.752121,33.395958,30,TRINITY_ALL
-96.101578,32.125833,30,TRSES_UNIT6
-100.256468,32.213737,30,TTWEC_G1
-94.943134,29.3787,30,TXCTY_CTA
-97.386761,33.722847,30,TYLRWIND_RN
-94.947715,29.37874,30,UCC_COG_PUN1
-99.386387,33.63333,30,VERTIGO_UN1
-97.009991,28.787301,40,VIC_VICTORG5
-96.833846,28.570746,40,VISTRON_PUN1
-96.318088,33.563556,30,VLSES_UNIT3
-100.992187,33.745055,30,WAKEWE_ALL
-95.635131,29.478021,30,WAP_WAPGT_1
-97.909898,33.059622,30,WCPP_CT1
-97.507208,30.235327,30,WEBBER_WS_T1
-101.132693,33.95036,30,WEC_WECG1
-98.592503,33.863559,30,WFCOGEN_13
-97.731919,32.333825,30,WHCCS_CT1_ST
-97.427082,33.719111,30,WHTTAIL_WR1
-96.987361,30.038281,30,WIPOPA_1_2
-98.338379,30.556077,30,WIR_WIRTZ_G1
-97.371158,31.866411,30,WND_WHITNEY
-98.522287,33.540457,30,WNDTS2_UNIT1
